{"version": 1, "last_updated": "2021-05-24 09:25:44.143254+02:00", "last_scrap": [], "centres_disponibles": [{"departement": "10", "nom": "Brunnsgårdens vårdcentral, Karlshamn", "url": "https://bokning.mittvaccin.se/klinik/580/bokning", "location": {"longitude": 14.86913980363779, "latitude": 56.1714540982337, "city": "Karlshamn", "cp": "00000"}, "metadata": {"address": "Erik Dahlbergsvägen 30", "business_hours": null, "phone_number": "0454-73 27 00"}, "prochain_rdv": "2021-06-03 13:40:00", "plateforme": "MittVaccin", "type": "vaccination-center", "appointment_count": 106, "internal_id": "SE2321000081-b3231", "vaccine_type": null, "appointment_by_phone_only": false, "erreur": null, "last_scan_with_availabilities": null, "request_counts": null, "appointment_schedules": [], "gid": null}, {"departement": "10", "nom": "Capio Citykliniken, Ronneby", "url": "https://bokning.mittvaccin.se/klinik/591/bokning", "location": {"longitude": 15.285538967170696, "latitude": 56.20298130606912, "city": "Ronneby", "cp": "00000"}, "metadata": {"address": "Fridhemsvägen 15", "business_hours": null, "phone_number": "0457-340 70"}, "prochain_rdv": "2021-05-26 08:05:00", "plateforme": "MittVaccin", "type": "vaccination-center", "appointment_count": 144, "internal_id": "SE5564220860-b3229", "vaccine_type": null, "appointment_by_phone_only": false, "erreur": null, "last_scan_with_availabilities": null, "request_counts": null, "appointment_schedules": [], "gid": null}, {"departement": "10", "nom": "Hälsohuset för alla", "url": "https://bokning.mittvaccin.se/klinik/596/bokning", "location": {"longitude": 15.58389613084896, "latitude": 56.165124322364484, "city": "Karlskrona", "cp": "00000"}, "metadata": {"address": "Västra Vittusgatan 4", "business_hours": null, "phone_number": "0455-35 55 00"}, "prochain_rdv": "2021-06-02 13:50:00", "plateforme": "MittVaccin", "type": "vaccination-center", "appointment_count": 41, "internal_id": "SE5567915771-b3218", "vaccine_type": null, "appointment_by_phone_only": false, "erreur": null, "last_scan_with_availabilities": null, "request_counts": null, "appointment_schedules": [], "gid": null}, {"departement": "10", "nom": "Jämjö vårdcentral, Jämjö", "url": "https://bokning.mittvaccin.se/klinik/575/bokning", "location": {"longitude": 15.833080809564901, "latitude": 56.189211017141744, "city": "Karlskrona", "cp": "00000"}, "metadata": {"address": "Hammarbyvägen 6", "business_hours": null, "phone_number": "0455-73 56 00"}, "prochain_rdv": "2021-06-10 13:10:00", "plateforme": "MittVaccin", "type": "vaccination-center", "appointment_count": 26, "internal_id": "SE2321000081-b3226", "vaccine_type": null, "appointment_by_phone_only": false, "erreur": null, "last_scan_with_availabilities": null, "request_counts": null, "appointment_schedules": [], "gid": null}, {"departement": "10", "nom": "Kallinge vårdcentral", "url": "https://bokning.mittvaccin.se/klinik/583/bokning", "location": {"longitude": 15.287394061779889, "latitude": 56.2469606234693, "city": "Ronneby", "cp": "00000"}, "metadata": {"address": "Gjutarevägen 1-3 Kallinge", "business_hours": null, "phone_number": "0457-73 17 90"}, "prochain_rdv": "2021-06-03 11:40:00", "plateforme": "MittVaccin", "type": "vaccination-center", "appointment_count": 138, "internal_id": "SE2321000081-b3229", "vaccine_type": null, "appointment_by_phone_only": false, "erreur": null, "last_scan_with_availabilities": null, "request_counts": null, "appointment_schedules": [], "gid": null}, {"departement": "10", "nom": "Lyckeby vårdcentral, Lyckeby", "url": "https://bokning.mittvaccin.se/klinik/584/bokning", "location": {"longitude": 15.649367373459722, "latitude": 56.19862527581323, "city": "Karlskrona", "cp": "00000"}, "metadata": {"address": "Källevägen 12", "business_hours": null, "phone_number": "0455-73 55 00"}, "prochain_rdv": "2021-06-10 10:45:00", "plateforme": "MittVaccin", "type": "vaccination-center", "appointment_count": 43, "internal_id": "SE2321000081-b3223", "vaccine_type": null, "appointment_by_phone_only": false, "erreur": null, "last_scan_with_availabilities": null, "request_counts": null, "appointment_schedules": [], "gid": null}, {"departement": "10", "nom": "Läkarhuset i Karlshamn AB, Karlshamn", "url": "https://bokning.mittvaccin.se/klinik/592/bokning", "location": {"longitude": 14.864171898010756, "latitude": 56.171173837721945, "city": "Karlshamn", "cp": "00000"}, "metadata": {"address": "Kungsgatan 44", "business_hours": null, "phone_number": "0454-395 00"}, "prochain_rdv": "2021-06-02 13:45:00", "plateforme": "MittVaccin", "type": "vaccination-center", "appointment_count": 50, "internal_id": "SE5564752912-b3226", "vaccine_type": null, "appointment_by_phone_only": false, "erreur": null, "last_scan_with_availabilities": null, "request_counts": null, "appointment_schedules": [], "gid": null}, {"departement": "10", "nom": "Nättraby vårdcentral", "url": "https://bokning.mittvaccin.se/klinik/587/bokning", "location": {"longitude": 15.536557149787294, "latitude": 56.20188840773274, "city": "Karlskrona", "cp": "00000"}, "metadata": {"address": "Kyrkvägen 16", "business_hours": null, "phone_number": "0455-73 57 20"}, "prochain_rdv": "2021-06-01 14:15:00", "plateforme": "MittVaccin", "type": "vaccination-center", "appointment_count": 3, "internal_id": "SE2321000081-b3224", "vaccine_type": null, "appointment_by_phone_only": false, "erreur": null, "last_scan_with_availabilities": null, "request_counts": null, "appointment_schedules": [], "gid": null}, {"departement": "10", "nom": "Olofströms vårdcentral, Olofström", "url": "https://bokning.mittvaccin.se/klinik/578/bokning", "location": {"longitude": 14.539450332633177, "latitude": 56.27785063042903, "city": "Olofström", "cp": "00000"}, "metadata": {"address": "Rösjövägen 10", "business_hours": null, "phone_number": "0454-73 31 00"}, "prochain_rdv": "2021-06-08 09:05:00", "plateforme": "MittVaccin", "type": "vaccination-center", "appointment_count": 60, "internal_id": "SE2321000081-b3233", "vaccine_type": null, "appointment_by_phone_only": false, "erreur": null, "last_scan_with_availabilities": null, "request_counts": null, "appointment_schedules": [], "gid": null}, {"departement": "10", "nom": "Olofströmskliniken, Olofström", "url": "https://bokning.mittvaccin.se/klinik/593/bokning", "location": {"longitude": 14.531238346499302, "latitude": 56.27719149748354, "city": "Olofström", "cp": "29334"}, "metadata": {"address": "Olofströmskliniken, Jämshögsvägen 1, 293 34 Olofström", "business_hours": null, "phone_number": "0454-919 99"}, "prochain_rdv": "2021-05-24 13:30:00", "plateforme": "MittVaccin", "type": "vaccination-center", "appointment_count": 104, "internal_id": "SE5567014013-b3214", "vaccine_type": null, "appointment_by_phone_only": false, "erreur": null, "last_scan_with_availabilities": null, "request_counts": null, "appointment_schedules": [], "gid": null}, {"departement": "10", "nom": "Ronneby vårdcentral", "url": "https://bokning.mittvaccin.se/klinik/579/bokning", "location": {"longitude": 15.269999654288354, "latitude": 56.20695642418727, "city": "Ronneby", "cp": "00000"}, "metadata": {"address": "Götgatan 29 E", "business_hours": null, "phone_number": "0457-73 14 00"}, "prochain_rdv": "2021-06-02 11:10:00", "plateforme": "MittVaccin", "type": "vaccination-center", "appointment_count": 15, "internal_id": "SE2321000081-b3230", "vaccine_type": null, "appointment_by_phone_only": false, "erreur": null, "last_scan_with_availabilities": null, "request_counts": null, "appointment_schedules": [], "gid": null}, {"departement": "10", "nom": "Rödeby vårdcentral, Rödeby", "url": "https://bokning.mittvaccin.se/klinik/585/bokning", "location": {"longitude": 15.616385809870739, "latitude": 56.261383044380345, "city": "Karlskrona", "cp": "00000"}, "metadata": {"address": "Movägen 4", "business_hours": null, "phone_number": "0455-73 56 55"}, "prochain_rdv": "2021-06-09 13:05:00", "plateforme": "MittVaccin", "type": "vaccination-center", "appointment_count": 1, "internal_id": "SE2321000081-b3225", "vaccine_type": null, "appointment_by_phone_only": false, "erreur": null, "last_scan_with_availabilities": null, "request_counts": null, "appointment_schedules": [], "gid": null}, {"departement": "10", "nom": "Samariten vårdcentral, Karlshamn", "url": "https://bokning.mittvaccin.se/klinik/577/bokning", "location": {"longitude": 14.851766499969292, "latitude": 56.1871016915944, "city": "Karlshamn", "cp": "37480"}, "metadata": {"address": "Samaritens vårdcentral, Länsmansvägen 1, 374 80 Karlshamn", "business_hours": null, "phone_number": "0454-73 34 02"}, "prochain_rdv": "2021-06-01 10:55:00", "plateforme": "MittVaccin", "type": "vaccination-center", "appointment_count": 117, "internal_id": "SE2321000081-b3232", "vaccine_type": null, "appointment_by_phone_only": false, "erreur": null, "last_scan_with_availabilities": null, "request_counts": null, "appointment_schedules": [], "gid": null}, {"departement": "10", "nom": "Sölvesborgs vårdcentral", "url": "https://bokning.mittvaccin.se/klinik/597/bokning", "location": {"longitude": 14.583232678821236, "latitude": 56.05609832639761, "city": "Sölvesborg", "cp": "00000"}, "metadata": {"address": "Markgatan 30", "business_hours": null, "phone_number": "0456-73 13 10"}, "prochain_rdv": "2021-06-10 17:20:00", "plateforme": "MittVaccin", "type": "vaccination-center", "appointment_count": 2, "internal_id": "SE2321000081-b3234", "vaccine_type": null, "appointment_by_phone_only": false, "erreur": null, "last_scan_with_availabilities": null, "request_counts": null, "appointment_schedules": [], "gid": null}, {"departement": "10", "nom": "Wämö vårdcentral, Karlskrona", "url": "https://bokning.mittvaccin.se/klinik/581/bokning", "location": {"longitude": 15.601673299156976, "latitude": 56.18196758297442, "city": "Karlskrona", "cp": "00000"}, "metadata": {"address": "Byggnad 4, Bättringsvägen, Blekingesjukhuset, Karlskrona", "business_hours": null, "phone_number": "0455-73 54 30"}, "prochain_rdv": "2021-05-25 13:25:00", "plateforme": "MittVaccin", "type": "vaccination-center", "appointment_count": 21, "internal_id": "SE2321000081-b3227", "vaccine_type": null, "appointment_by_phone_only": false, "erreur": null, "last_scan_with_availabilities": null, "request_counts": null, "appointment_schedules": [], "gid": null}], "centres_indisponibles": [{"departement": "10", "nom": "Bräkne-Hoby vårdcentral, Bräkne-Hoby", "url": "https://www.1177.se/hitta-vard/kontaktkort/Brakne-Hoby-vardcentral-Brakne-Hoby/", "location": {"longitude": 15.116567592895079, "latitude": 56.227310913111644, "city": "Ronneby", "cp": "00000"}, "metadata": {"address": "Parkvägen 4", "business_hours": null, "phone_number": "0457-73 18 20"}, "prochain_rdv": null, "plateforme": null, "type": "vaccination-center", "appointment_count": 0, "internal_id": "SE2321000081-b3228", "vaccine_type": null, "appointment_by_phone_only": false, "erreur": null, "last_scan_with_availabilities": null, "request_counts": null, "appointment_schedules": [], "gid": null}, {"departement": "10", "nom": "Kungsmarkens vårdcentral, Karlskrona", "url": "https://bokning.mittvaccin.se/klinik/595/bokning", "location": {"longitude": 15.622468264447424, "latitude": 56.19424140502793, "city": "Karlskrona", "cp": "00000"}, "metadata": {"address": "Kungsmarksplan 3", "business_hours": null, "phone_number": "0455-61 94 00"}, "prochain_rdv": null, "plateforme": "MittVaccin", "type": "vaccination-center", "appointment_count": 0, "internal_id": "SE5567819080-b3217", "vaccine_type": null, "appointment_by_phone_only": false, "erreur": null, "last_scan_with_availabilities": null, "request_counts": null, "appointment_schedules": [], "gid": null}, {"departement": "10", "nom": "Sölvesborgs vårdcentral", "url": "https://bokning.mittvaccin.se/klinik/576/bokning", "location": {"longitude": 14.583232678821236, "latitude": 56.05609832639761, "city": "Sölvesborg", "cp": "00000"}, "metadata": {"address": "Markgatan 30", "business_hours": null, "phone_number": "0456-73 13 10"}, "prochain_rdv": null, "plateforme": "MittVaccin", "type": "vaccination-center", "appointment_count": 0, "internal_id": "SE2321000081-b3234", "vaccine_type": null, "appointment_by_phone_only": false, "erreur": null, "last_scan_with_availabilities": null, "request_counts": null, "appointment_schedules": [], "gid": null}, {"departement": "10", "nom": "Trossö vårdcentral, Karlskrona", "url": "https://bokning.mittvaccin.se/klinik/586/bokning", "location": {"longitude": 15.589586190296162, "latitude": 56.160823506192735, "city": "Karlskrona", "cp": "00000"}, "metadata": {"address": "Fortifikationsgatan 9, Karlskrona", "business_hours": null, "phone_number": "0455-73 57 55"}, "prochain_rdv": null, "plateforme": "MittVaccin", "type": "vaccination-center", "appointment_count": 0, "internal_id": "SE2321000081-b3222", "vaccine_type": null, "appointment_by_phone_only": false, "erreur": null, "last_scan_with_availabilities": null, "request_counts": null, "appointment_schedules": [], "gid": null}, {"departement": "10", "nom": "Tvings läkarmottagning, Tving", "url": "https://bokning.mittvaccin.se/klinik/594/bokning", "location": {"longitude": 15.458891376975423, "latitude": 56.311424366793545, "city": "Karlskrona", "cp": "00000"}, "metadata": {"address": "Rävalyckan 2", "business_hours": null, "phone_number": "0455-33 05 05"}, "prochain_rdv": null, "plateforme": "MittVaccin", "type": "vaccination-center", "appointment_count": 0, "internal_id": "SE5567819080-b3216", "vaccine_type": null, "appointment_by_phone_only": false, "erreur": null, "last_scan_with_availabilities": null, "request_counts": null, "appointment_schedules": [], "gid": null}]}